{"name":"ゴールドジム 原宿東京","description":"本格的なウェイトトレーニングの聖地。豊富なフリーウェイトとマシンで、初心者から上級者まで満足できる設備。24時間営業で忙しい方にも最適。","location":{"lat":35.6705,"lng":139.7026},"address":"東京都渋谷区神宮前6-31-17 ベロックスビル B1F","city":"渋谷区","prefecture":"東京都","postal_code":"150-0001","is_active":true}
{"name":"ゴールドジム 原宿ANNEX","description":"原宿東京の姉妹店として、よりスペシャライズされたトレーニング環境を提供。コンパクトながら充実した設備で集中してトレーニングが可能。","location":{"lat":35.6698,"lng":139.7038},"address":"東京都渋谷区神宮前6-28-6 Q PLAZA HARAJUKU 4F","city":"渋谷区","prefecture":"東京都","postal_code":"150-0001","is_active":true}
{"name":"ゴールドジム 表参道東京","description":"表参道の中心地にある都市型フィットネスクラブ。洗練された空間で本格的なトレーニングを。ビジネスマンや美意識の高い女性に人気。","location":{"lat":35.6654,"lng":139.7106},"address":"東京都港区北青山3-6-19 三和実業表参道ビル B1F","city":"港区","prefecture":"東京都","postal_code":"107-0061","is_active":true}
{"name":"ゴールドジム 渋谷東京","description":"渋谷の中心部にありアクセス抜群。若い世代から年配の方まで幅広い層に愛される老舗店舗。充実した設備とフレンドリーなスタッフが魅力。","location":{"lat":35.6581,"lng":139.7016},"address":"東京都渋谷区渋谷1-23-16 cocoti SHIBUYA 6F","city":"渋谷区","prefecture":"東京都","postal_code":"150-0002","is_active":true}
{"name":"ゴールドジム 南青山東京","description":"青山エリアの高級感あふれる立地で、質の高いトレーニング環境を提供。女性向け設備も充実し、美意識の高い会員が多く集まる。","location":{"lat":35.6627,"lng":139.7172},"address":"東京都港区南青山2-27-20 植竹ビル B1F","city":"港区","prefecture":"東京都","postal_code":"107-0062","is_active":true}